"Location","Latitude","Longitude"
"Brugge, Belgium","51.209348","3.2246995"
"Chelmsford, UK","51.7355868","0.4685497"
"Florence, Italy","43.7695604","11.2558136"
"Hong Kong, China","22.396428","114.109497"
"Mumbai, India","19.0759837","72.8776559"
"Seville, Spain","37.3890924","-5.9844589"
"Toronto, Canada","43.653226","-79.3831843"
"Warsaw, Polad","52.2296756","21.0122287"
